name,address,lat,lng
10th & Osage,"1005 Osage St Denver, CO 80204",39.7323319,-105.0054152
11th & Broadway,"1085 Broadway St. Denver, CO 80204",39.7333757,-104.9876094
11th & Delaware,"1095 Delaware St Denver, CO 80204",39.7337207206938,-104.993041636552
11th & Emerson,"900 E. 11th Ave Denver, CO 80218",39.73316365,-104.975856747384
12th & Columbine,"2504 East 12th Ave Denver, CO 80206",39.7350878,-104.9572332
12th & Sherman,"1200 Sherman St. Denver, CO 80203",39.7357732,-104.9847036
1350 Larimer,"1350 Larimer St. Denver, CO 80202",39.7468634,-105.0002104
13th & Marion,"1279 Marion St Denver, CO 80218",39.7367709,-104.9720149
13th & Pearl,"1291 Pearl Street Denver, CO 80203",39.7368035,-104.980105
13th & Speer,"1301 Speer Blvd Denver, CO 80204",39.73722625,-104.997111543914
1450 Wazee,"1450 Wazee St Denver, CO 80202",39.750114,-105.0015998
14th & Elati,"1404 Elati St. Denver, CO 80204",39.7386333,-104.9940401
14th & Ogden,"1425 Ogden St Denver, CO 80218",39.7385011,-104.9750705
14th & Stout,"850 14th St. Denver, CO 80202",39.7442686483079,-104.995993724899
14th & Welton,"700 14th St. Denver, CO 80202",39.743888,-104.9962344
1550 Glenarm,"1550 Glenarm Pl Denver, CO 80202",39.7432265,-104.9910977
1551 Lafayette,"1551 Lafayette St Denver, CO 80218",39.740879244898,-104.971014020408
15th & Cleveland,"101 West Colfax Avenue Denver, CO 80202",39.740768,-104.9887101
15th & Curtis,"1505 Curtis St Denver, CO 80202",39.7464209284569,-104.995949168416
15th & Delgany,"1515 Delgany St. Denver, CO 80202",39.7525283625329,-105.003729572881
16th & Boulder,"1615 Boulder St Denver, CO 80211",39.7599048095555,-105.009802356845
16th & Broadway,"1600 Broadway Denver, CO 80202",39.7416014,-104.9869947
16th & Little Raven,"1600 Little Raven St. Denver, CO 80202",39.755282,-105.004549
16th & Platte,"1601 Platte St Denver, CO 80202",39.757539,-105.00806
16th & Sherman,"1612 Sherman St. Denver , CO 80203",39.7419199,-104.9849473
17th & Blake,"1509 17th St. Denver, CO 80202",39.7516579239417,-104.998050650251
17th & Curtis,"950 17th St Denver, CO 80202",39.7477264,-104.9933716
17th & Downing,"1100 East 17th Ave Denver, CO 80218",39.7431766,-104.9732385
17th & Franklin,"1550 E 17th Ave Denver, CO 80218",39.7430121,-104.9685629
17th & Larimer,"1260 17th St. Denver, CO 80202",39.7498956,-104.9960753
17th & Pearl,"523 East 17th Ave Denver, CO 80203",39.743518,-104.980371
17th & Race,"2001 East 17th Ave Denver, CO 80206",39.7433833,-104.9633808
17th & Tejon,"2701 17th St. Denver, CO 80211",39.761254,-105.010548
18th & Arapahoe,"1099 18th St Denver, CO 80202",39.74959805,-104.992579801955
18th & California,"1701 California St. Denver, CO 80202",39.7472023,-104.9904179
19th & Market,"1899 Market St. Denver, CO 80202",39.75265,-104.994859
19th & Pearl,"600 E. 19th Ave Denver, CO 80203",39.7459857,-104.9846298
19th & Wynkoop,"1711 19th St. Denver, CO 80202",39.7548238,-104.9970035
2045 Franklin,"2045 Franklin St. Denver , CO 80205",39.7472884,-104.9685958
20th & Chestnut,"2095 Chestnut Place Denver, CO 80202",39.7580204,-104.9983402
22nd & Market,"2200 Market St Denver, CO 80205",39.7556239,-104.9907861
22nd & Pennsylvania,"525 E. 20th Ave Denver, CO 80218",39.7477492,-104.9810029
23rd & Clay,"2301 Clay St Denver, CO 80211",39.7514098,-105.020935
25th & Lawrence,"2502 Lawrence St, Denver, CO 80205",39.7569492720231,-104.985510165727
28th & Larimer,"2751 Larimer St. Denver, CO 80206",39.7602755,-104.983306
29th & Zuni,"2417 W 29th Ave Denver, CO 80211",39.7586854,-105.0168923
32nd & Clay,"3199 Clay St Denver, CO 80211",39.761898,-105.020628
32nd & Julian,"3199 Julian St Denver, CO 80211",39.762,-105.032371
32nd & Pecos,"3200 Pecos St Denver, CO 80211",39.7622585,-105.006187
33rd & Arapahoe,"3310 Arapahoe Street Denver, CO 80205",39.763862993483,-104.974871222731
39th & Fox,"3965 Fox St Denver, CO 80216",39.7712687958566,-104.994962767775
3rd & Milwaukee,"299 Milwaukee St Denver, CO 80206",39.7208652,-104.9523059
4th & Walnut,"318 Walnut St Denver, CO 80204",39.74224405,-105.012060371903
6th & Clarkson,"745 E. 6th Ave Denver, CO 80203",39.7258831,-104.97799
7th & Grant,"721 Grant St. Denver, CO 80203",39.7277214919463,-104.983723874763
9th & Curtis,"899 Curtis St Denver, CO 80204",39.74213,-105.004419
9th & Downing,"920 Downing St Denver, CO 80218",39.7307769,-104.9728698
9th & Logan,"899 Logan St Denver, CO 80203",39.7302708,-104.9828102
9th & Santa Fe,"923 W. 9th Ave Denver, CO 80204",39.7306283,-104.9990736
Bayaud & Emerson,"910 East Bayaud Ave Denver, CO 80209",39.714636,-104.976125408163
Bayaud & Pennsylvania,"525 E. Bayaud Ave. Denver, CO 80209",39.7148108014235,-104.981136740951
Buchtel and High,"1901 East Buchtel Boulevard Denver, Colorado",39.6847562,-104.9645825
Cherry Creek Mall,"2900 Cherry Creek N Drive Denver, CO 80206",39.7154041,-104.95314
Colfax & Columbine,"2451 East Colfax Ave Denver, CO 80206",39.7403309,-104.9582095
Colfax & Garfield,"1535 Garfield St. Denver, CO 80206",39.7409203,-104.9442869
Colfax & Gaylord,"1490 Gaylord St Denver, CO 80206",39.7397781,-104.9609347
Colfax & Steele,"1509 Steele St Denver, CO 80206",39.7404504,-104.9501765
Decatur Federal Light Rail,"2810 W Howard Pl. Denver, CO 80204",39.7382420401332,-105.022134650458
Denver Botanic Gardens,"1051 York St. Denver, CO 80206",39.7324892,-104.9599471
Denver Health,"790 Delaware Street Denver, CO 80204",39.72830105,-104.992456251141
Denver Museum of Nature & Science,"2001 Colorado Boulevard Denver, CO 80205",39.747514,-104.940699
Denver Public Library,"10 W 14th Avenue Pkwy Denver, CO 80204",39.7371893,-104.9887471
Denver Zoo,"2300 Steele Street Denver, CO 80205",39.751191,-104.948954
DU Driscoll Center,"2055 E Evans Ave, Denver, CO 80210",39.6785218,-104.9664021
Ellsworth & Madison,"30 S. Madison St. Denver, CO 80209",39.7158414,-104.9463433
Five Points,"615 27th St. Denver, CO 80205",39.7550017142857,-104.978318714286
Florida & S. Pearl,"1476 S Pearl St, Denver, CO 80210",39.6896798,-104.9802898
Louisiana / Pearl Light Rail,"755 East Louisiana Avenue Denver, Colorado",39.6930799845904,-104.978386837254
Louisiana & Franklin,"1700 E. Louisiana Ave Denver, CO 80210",39.6928472,-104.9685468
Market Street Station,"1610 Market Street Denver, CO 80202",39.7499823447487,-104.998023540335
Park Ave West & Tremont,"370 Park Avenue West Denver, CO 80205",39.7496486,-104.9807751
Pepsi Center,"1000 Chopper Circle Denver, CO 80204",39.748682,-105.007539245975
REI,"1416 Platte St Denver, CO 80202",39.7550724,-105.0092995
Union Station Light Rail at 17th,"2051 16th St Denver, CO 80202",39.7540703,-105.0034969
Webb Building,"201 W. Colfax Denver, CO 80202",39.7407867,-104.990063630885
Broadway & Walnut,"2490 N. Broadway St Denver, CO 80205", 39.7577617,-104.987740963334
1st & Broadway,"99 Broadway St Denver, CO 80202",39.7179749,-104.987867